city,max temperature,latitude,longitude,humidity,clouds,wind,country,date
bubaque,79.5,11.28,-15.83,47,96,9.98,GW,1587213799
pringsewu,77.04,-5.36,104.97,87,96,2.62,ID,1587213799
salvador,73.4,13.83,-88.92,73,46,3.36,SV,1587213794
tuatapere,48.0,-46.13,167.68,92,91,3.0,NZ,1587213800
salinas,55.4,36.68,-121.66,76,90,6.93,US,1587213540
arraial do cabo,75.2,-22.97,-42.03,78,40,13.87,BR,1587213800
estelle,72.0,29.85,-90.11,100,90,3.36,US,1587213800
port lincoln,61.14,-34.73,135.87,72,9,4.92,AU,1587213801
severo-kurilsk,31.01,50.68,156.12,93,0,10.89,RU,1587213801
piranshahr,61.52,36.7,45.14,28,1,5.46,IR,1587213801
hermanus,88.0,-34.42,19.23,30,9,4.0,ZA,1587213801
khatanga,17.55,71.97,102.5,94,0,8.75,RU,1587213801
jumla,55.09,29.27,82.18,27,73,2.24,NP,1587213585
cape town,86.0,-33.93,18.42,17,26,4.7,ZA,1587213660
busselton,63.0,-33.65,115.33,57,100,10.47,AU,1587213802
kapaa,73.4,22.08,-159.32,73,20,11.41,US,1587213802
hobart,48.99,-42.88,147.33,75,75,6.69,AU,1587213802
rikitea,76.8,-23.12,-134.97,69,10,6.02,PF,1587213802
ugoofaaru,86.67,5.67,73.0,70,84,9.26,MV,1587213802
bose,75.0,45.46,8.01,32,100,3.78,IT,1587213803
cabo san lucas,64.0,22.89,-109.91,87,5,14.99,MX,1587213803
cabedelo,86.0,-6.98,-34.83,74,40,4.7,BR,1587213803
punta arenas,39.2,-53.15,-70.92,80,0,13.87,CL,1587213613
ust-kuyga,-8.27,70.02,135.6,83,1,1.52,RU,1587213803
vaini,77.0,-21.2,-175.2,78,40,9.17,TO,1587213803
hervey bay,75.99,-25.3,152.85,88,87,9.17,AU,1587213804
bredasdorp,86.0,-34.53,20.04,36,9,10.29,ZA,1587213804
jamestown,30.99,42.1,-79.24,100,40,6.93,US,1587213804
bambanglipuro,80.8,-7.95,110.28,81,100,3.78,ID,1587213804
bilibino,-7.78,68.05,166.44,83,10,6.4,RU,1587213804
mbandaka,82.6,0.05,18.26,70,98,5.06,CD,1587213804
airai,62.51,-8.93,125.41,70,56,2.04,TL,1587213804
chuy,64.15,-33.7,-53.46,80,1,0.6,UY,1587213805
shache,59.59,38.42,77.24,39,100,12.24,CN,1587213805
coruripe,83.57,-10.13,-36.18,68,25,3.4,BR,1587213554
poddorye,40.95,57.47,31.12,68,100,11.41,RU,1587213805
rio grande,61.0,-32.03,-52.1,100,90,3.36,BR,1587213663
dikson,34.65,73.51,80.55,91,100,14.92,RU,1587213805
hithadhoo,84.58,-0.6,73.08,71,80,12.88,MV,1587213806
lorengau,83.8,-2.02,147.27,73,99,4.99,PG,1587213806
bluff,48.0,-46.6,168.33,92,65,3.0,NZ,1587213806
tuktoyaktuk,14.86,69.45,-133.04,97,100,9.71,CA,1587213806
kavieng,83.19,-2.57,150.8,76,98,7.14,PG,1587213806
pemangkat,78.33,1.17,108.97,83,93,4.25,ID,1587213806
mataura,48.0,-46.19,168.86,92,65,3.0,NZ,1587213806
kapasan,81.61,-6.78,111.38,79,100,5.66,ID,1587213806
struer,59.0,56.49,8.58,31,48,1.99,DK,1587213807
bengkulu,80.91,-3.8,102.27,77,93,1.68,ID,1587213737
mabaruma,81.03,8.2,-59.78,70,31,5.7,GY,1587213807
albany,35.01,42.6,-73.97,89,100,6.06,US,1587213807
norman wells,28.4,65.28,-126.83,86,75,3.36,CA,1587213807
tasiilaq,32.0,65.61,-37.64,88,75,16.11,GL,1587213808
klaksvik,46.4,62.23,-6.59,75,0,19.46,FO,1587213808
east london,77.0,-33.02,27.91,73,20,11.41,ZA,1587213808
butaritari,83.57,3.07,172.79,76,86,15.97,KI,1587213808
beringovskiy,16.77,63.05,179.32,96,100,20.94,RU,1587213808
taltal,65.25,-25.4,-70.48,66,26,0.67,CL,1587213573
lavrentiya,19.47,65.58,-171.0,96,100,18.72,RU,1587213808
shimoda,57.99,34.67,138.95,72,2,1.99,JP,1587213809
castro,57.63,-24.79,-50.01,59,60,6.62,BR,1587213540
mar del plata,57.99,-38.0,-57.56,93,40,11.41,AR,1587213562
igarka,36.75,67.47,86.58,96,100,18.59,RU,1587213809
barrow,-2.2,71.29,-156.79,77,1,8.05,US,1587213809
kokoda,76.35,-8.88,147.74,68,99,1.52,PG,1587213809
borodino,40.91,55.91,94.9,62,78,8.55,RU,1587213810
adrar,84.0,20.5,-10.07,25,93,14.18,MR,1587213810
karratha,86.09,-20.74,116.85,57,89,11.27,AU,1587213796
ushuaia,50.0,-54.8,-68.3,34,75,17.22,AR,1587213789
saint-philippe,81.0,-21.36,55.77,74,16,23.04,RE,1587213810
nikolskoye,42.8,59.7,30.79,56,75,20.13,RU,1587213811
bethel,36.0,41.37,-73.41,93,90,6.93,US,1587213811
zatoka,59.0,46.07,30.47,33,94,2.24,UA,1587213811
tiksi,10.87,71.69,128.87,93,100,5.55,RU,1587213811
atuona,81.82,-9.8,-139.03,74,35,13.02,PF,1587213811
isangel,78.58,-19.55,169.27,83,100,10.0,VU,1587213812
clyde river,12.2,70.47,-68.59,85,90,16.11,CA,1587213812
ocampo,55.78,21.65,-101.5,29,75,1.48,MX,1587213812
muros,61.0,42.78,-9.06,87,73,1.01,ES,1587213812
juneau,39.0,58.3,-134.42,64,20,2.93,US,1587213812
new norfolk,48.99,-42.78,147.06,81,89,3.71,AU,1587213812
kodiak,41.0,57.79,-152.41,86,90,3.36,US,1587213812
mehriz,73.4,31.59,54.43,31,75,2.24,IR,1587213813
saint-augustin,22.46,51.23,-58.65,89,15,7.67,CA,1587213813
novoagansk,53.87,61.94,76.66,68,95,16.35,RU,1587213813
khonsa,65.35,27.02,95.57,68,100,1.72,IN,1587213813
port alfred,73.0,-33.59,26.89,85,35,1.01,ZA,1587213813
pontianak,80.6,-0.03,109.33,78,20,3.36,ID,1587213762
mgandu,72.82,-5.95,34.13,50,98,9.48,TZ,1587213814
puerto ayora,77.0,-0.74,-90.35,83,75,6.93,EC,1587213814
eyl,86.77,7.98,49.82,60,50,11.56,SO,1587213814
hovd,43.36,48.01,91.64,32,67,10.63,MN,1587213538
sao filipe,70.92,14.9,-24.5,73,1,25.41,CV,1587213814
alofi,77.0,-19.06,-169.92,88,4,10.29,NU,1587213815
thompson,-2.2,55.74,-97.86,70,40,6.93,CA,1587213815
touros,78.8,-5.2,-35.46,94,75,4.7,BR,1587213815
xianyang,54.0,34.34,108.7,81,90,8.95,CN,1587213815
cordoba,66.0,-31.41,-64.18,67,0,5.82,AR,1587213728
orlik,31.06,52.52,99.83,51,89,4.74,RU,1587213816
goose creek,70.0,32.98,-80.03,88,90,9.17,US,1587213816
sumbe,71.6,-11.21,13.84,71,90,4.7,AO,1587213816
avarua,75.2,-21.21,-159.78,83,1,3.36,CK,1587213816
barra patuca,78.4,15.8,-84.28,80,20,5.68,HN,1587213816
kieta,79.77,-6.22,155.63,81,98,6.29,PG,1587213817
valparaiso,48.2,-33.04,-71.63,93,40,5.7,CL,1587213778
korla,64.08,41.76,86.15,34,100,10.98,CN,1587213545
upernavik,25.75,72.79,-56.15,96,100,20.6,GL,1587213817
coahuayana,73.4,18.73,-103.68,49,20,2.24,MX,1587213817
carnarvon,77.0,-24.87,113.63,88,16,9.17,AU,1587213817
general pico,60.49,-35.66,-63.76,45,10,14.94,AR,1587213818
whitehorse,30.2,60.72,-135.05,80,20,3.36,CA,1587213603
poum,78.71,-20.23,164.02,76,100,12.97,NC,1587213818
geraldton,73.4,-28.77,114.6,73,69,10.29,AU,1587213818
yellowknife,12.99,62.46,-114.35,72,40,8.05,CA,1587213634
ribeira grande,62.6,38.52,-28.7,93,75,12.75,PT,1587213818
faanui,82.76,-16.48,-151.75,66,100,6.22,PF,1587213818
kahului,71.6,20.89,-156.47,73,40,12.75,US,1587213819
shenjiamen,59.13,29.96,122.3,77,39,12.55,CN,1587213819
katsuura,60.8,35.13,140.3,67,20,23.04,JP,1587213819
mount gambier,50.0,-37.83,140.77,93,90,3.36,AU,1587213819
ulaanbaatar,33.8,47.91,106.88,86,40,17.9,MN,1587213734
kalininsk,49.87,51.5,44.48,44,27,15.03,RU,1587213819
plettenberg bay,74.66,-34.05,23.37,42,10,5.66,ZA,1587213820
guamuchil,57.99,25.47,-108.1,97,43,1.48,MX,1587213529
vostok,40.57,46.49,135.88,69,100,2.64,RU,1587213820
hasaki,54.0,35.73,140.83,81,20,4.7,JP,1587213820
biltine,101.01,14.53,20.92,6,34,5.88,TD,1587213820
codrington,54.97,-38.27,141.97,73,82,5.26,AU,1587213820
kovdor,33.66,67.57,30.48,80,99,13.38,RU,1587213821
scarborough,50.0,54.28,-0.4,77,87,1.99,GB,1587213821
college,39.0,64.86,-147.8,93,90,2.37,US,1587213691
port elizabeth,75.2,-33.92,25.57,64,14,14.99,ZA,1587213821
havoysund,37.4,71.0,24.66,69,75,11.41,NO,1587213821
maunabo,82.0,18.01,-65.9,100,54,5.99,PR,1587213821
georgetown,87.8,5.41,100.34,79,20,8.05,MY,1587213822
hobyo,88.47,5.35,48.53,60,89,13.15,SO,1587213822
bonavista,33.01,48.65,-53.11,67,48,11.99,CA,1587213822
aguimes,71.6,27.91,-15.45,60,75,12.75,ES,1587213822
guerrero negro,57.65,27.98,-114.06,80,1,12.17,MX,1587213823
izhma,41.34,65.01,53.91,81,97,2.17,RU,1587213823
ravar,72.68,31.27,56.81,21,59,2.24,IR,1587213823
provideniya,21.58,64.38,-173.3,95,100,22.19,RU,1587213823
naze,64.4,28.37,129.48,82,67,4.7,JP,1587213823
victoria,73.99,22.29,114.16,86,99,8.99,HK,1587213774
tsabong,90.14,-26.02,22.4,17,21,15.61,BW,1587213824
ahipara,63.81,-35.17,173.17,87,27,11.68,NZ,1587213824
klyuchi,64.49,52.27,79.17,27,0,6.2,RU,1587213824
nanchang,64.36,28.68,115.88,87,100,9.64,CN,1587213824
suzun,54.45,53.78,82.31,53,0,9.46,RU,1587213824
hauterive,69.8,46.09,3.45,49,99,4.7,FR,1587213824
asyut,77.0,27.18,31.18,38,27,17.22,EG,1587213825
manicore,74.88,-5.81,-61.3,96,100,2.82,BR,1587213825
meaford,32.0,44.6,-80.58,90,9,5.01,CA,1587213825
tomatlan,71.58,19.93,-105.25,58,8,3.69,MX,1587213825
labrea,74.17,-7.26,-64.8,91,90,3.15,BR,1587213825
lake city,69.01,30.19,-82.64,93,90,6.93,US,1587213826
tessalit,102.85,20.2,1.01,8,37,5.23,ML,1587213826
hilo,71.6,19.73,-155.09,83,90,4.7,US,1587213826
bathsheba,84.2,13.22,-59.52,62,40,16.11,BB,1587213826
praya,80.6,14.92,-23.51,42,20,24.16,CV,1587213826
sakakah,82.4,29.97,40.21,20,40,11.41,SA,1587213826
gidam,94.6,18.98,81.4,21,49,0.96,IN,1587213826
santa rosa,87.8,14.31,121.11,66,40,5.82,PH,1587213827
talaya,-1.71,61.38,152.75,83,100,7.34,RU,1587213827
las tunas,77.0,20.96,-76.95,83,20,6.93,CU,1587213827
egvekinot,7.25,66.32,-179.17,88,98,21.39,RU,1587213827
usinsk,35.47,65.99,57.53,97,100,7.07,RU,1587213827
moyale,81.18,3.52,39.06,47,88,8.16,KE,1587213827
verkhnyaya inta,37.22,65.98,60.31,92,100,6.44,RU,1587213828
big rapids,33.01,43.7,-85.48,100,1,6.44,US,1587213610
ancud,55.4,-41.87,-73.82,100,75,11.41,CL,1587213828
chapais,23.0,49.78,-74.85,92,1,10.29,CA,1587213828
ghansor,95.54,22.65,79.95,16,65,10.29,IN,1587213828
dwarka,81.39,22.24,68.97,79,0,14.07,IN,1587213829
kokstad,70.12,-30.55,29.42,25,4,6.76,ZA,1587213829
okhotsk,17.76,59.38,143.3,88,100,9.84,RU,1587213829
barra do corda,73.99,-5.5,-45.25,92,100,2.42,BR,1587213829
maniitsoq,25.9,65.42,-52.9,90,100,17.11,GL,1587213829
srednekolymsk,-8.18,67.45,153.68,90,75,9.95,RU,1587213829
luanda,82.4,-8.84,13.23,74,75,8.05,AO,1587213664
revelstoke,35.6,50.98,-118.2,100,75,2.19,CA,1587213830
padang,80.87,-0.95,100.35,77,98,1.59,ID,1587213830
port blair,84.65,11.67,92.75,71,7,5.84,IN,1587213793
saint-louis,77.0,16.33,-15.0,44,88,6.93,SN,1587213830
kendari,78.75,-3.94,122.5,80,96,2.1,ID,1587213830
morondava,87.98,-20.28,44.28,48,0,4.47,MG,1587213830
qaanaaq,13.01,77.48,-69.36,78,4,7.38,GL,1587213830
nabire,78.82,-3.37,135.48,85,100,1.1,ID,1587213831
lebu,59.81,-37.62,-73.65,93,100,2.82,CL,1587213831
talnakh,37.4,69.49,88.4,74,97,29.08,RU,1587213831
tacuarembo,59.79,-31.73,-55.98,79,0,6.4,UY,1587213831
omboue,83.84,-1.57,9.26,77,52,5.57,GA,1587213832
zahvizdya,59.0,48.92,24.65,24,4,6.71,UA,1587213832
tarrega,75.0,41.65,1.14,69,100,8.01,ES,1587213832
novikovo,48.36,51.15,37.89,47,40,16.62,RU,1587213832
chokurdakh,-12.5,70.63,147.92,86,0,5.75,RU,1587213832
faya,77.0,18.39,42.45,50,40,16.11,SA,1587213833
muroto,59.09,33.28,134.15,64,4,14.58,JP,1587213833
kintampo,90.34,8.06,-1.73,51,68,9.57,GH,1587213833
port macquarie,54.0,-31.43,152.92,93,46,4.63,AU,1587213833
kigorobya,68.11,1.62,31.31,69,100,5.91,UG,1587213833
concordia,57.2,-31.39,-58.02,87,0,7.85,AR,1587213834
buriti bravo,73.98,-5.84,-43.83,89,100,3.11,BR,1587213834
ponta do sol,64.0,32.67,-17.1,62,19,8.99,PT,1587213834
cidreira,66.63,-30.18,-50.21,79,12,1.72,BR,1587213834
saint-medard-en-jalles,75.99,44.9,-0.72,53,40,3.36,FR,1587213834
yulara,78.8,-25.24,130.99,29,20,6.93,AU,1587213834
praia,80.6,14.92,-23.51,42,20,24.16,CV,1587213835
kefamenanu,71.85,-9.45,124.48,81,59,1.01,ID,1587213835
marsh harbour,77.41,26.54,-77.06,82,22,14.03,BS,1587213835
san patricio,68.0,19.22,-104.7,82,5,5.82,MX,1587213835
fiche,68.52,9.8,38.73,22,99,3.83,ET,1587213835
inhambane,84.2,-23.86,35.38,62,40,5.82,MZ,1587213835
sokoto,103.64,13.06,5.24,9,12,7.87,NG,1587213835
ariquemes,70.32,-9.91,-63.04,70,45,6.06,BR,1587213615
preobrazheniye,42.35,42.9,133.91,62,77,4.29,RU,1587213836
aquiraz,80.6,-3.9,-38.39,78,40,5.82,BR,1587213836
north bend,51.01,43.41,-124.22,87,90,4.7,US,1587213836
ilulissat,24.8,69.22,-51.1,85,90,12.75,GL,1587213836
ketchikan,42.8,55.34,-131.65,93,1,6.93,US,1587213720
pocosol,70.0,10.37,-84.62,68,13,9.17,CR,1587213837
mujiayingzi,56.25,42.12,118.78,29,100,7.27,CN,1587213837
khanpur,94.33,28.65,70.66,19,23,7.87,PK,1587213837
lagunas,68.88,-5.23,-75.68,85,97,0.94,PE,1587213837
zhuhai,77.0,22.28,113.57,100,40,6.93,CN,1587213837
masindi,67.66,1.67,31.71,70,100,6.62,UG,1587213838
maningrida,80.33,-12.07,134.27,78,43,6.46,AU,1587213838
batagay-alyta,-5.62,67.8,130.41,73,0,6.17,RU,1587213838
sibolga,80.4,1.74,98.78,78,92,1.48,ID,1587213838
okha,19.62,53.57,142.95,92,65,3.69,RU,1587213686
banda aceh,81.82,5.56,95.32,78,46,4.61,ID,1587213838
samarai,80.08,-10.62,150.67,84,53,4.59,PG,1587213838
karaton,80.6,-6.34,106.1,78,40,6.93,ID,1587213839
ulladulla,57.2,-35.35,150.47,93,75,5.82,AU,1587213839
mayo,48.99,38.89,-76.51,87,90,4.7,US,1587213839
vardo,35.6,70.37,31.11,80,75,6.93,NO,1587213839
meulaboh,81.91,4.14,96.13,75,64,1.52,ID,1587213839
fort-shevchenko,56.97,44.51,50.26,61,92,11.48,KZ,1587213839
dunhua,46.54,43.37,128.24,54,22,1.54,CN,1587213840
saskylakh,8.74,71.92,114.08,86,0,3.69,RU,1587213840
kaitangata,51.01,-46.28,169.85,87,50,1.99,NZ,1587213840
saint-leu,81.0,-21.15,55.28,74,31,23.04,RE,1587213840
calabozo,82.15,8.92,-67.43,56,81,10.0,VE,1587213840
qasigiannguit,24.8,68.82,-51.19,85,90,12.75,GL,1587213840
zhezkazgan,77.0,47.8,67.71,21,75,13.42,KZ,1587213841
upanema,87.8,-5.64,-37.26,70,75,5.82,BR,1587213841
caravelas,76.73,-17.71,-39.25,86,84,20.98,BR,1587213841
mnogovershinnyy,16.81,53.94,139.92,94,81,0.58,RU,1587213841
skibbereen,48.2,51.55,-9.27,100,75,14.99,IE,1587213841
sao joao da barra,77.0,-21.64,-41.05,65,75,9.17,BR,1587213841
longyearbyen,33.8,78.22,15.64,64,75,3.36,SJ,1587213842
solwezi,78.22,-12.17,26.39,41,26,9.46,ZM,1587213842
tuni,87.28,17.35,82.55,58,31,10.13,IN,1587213604
deputatskiy,-14.31,69.3,139.9,80,0,0.4,RU,1587213842
fortuna,51.01,40.6,-124.16,93,90,2.89,US,1587213842
gedo,74.71,9.02,37.45,21,100,2.77,ET,1587213843
antalaha,82.78,-14.9,50.28,66,66,11.12,MG,1587213843
koutsouras,63.05,35.03,25.95,59,30,6.49,GR,1587213843
dunda,79.25,-8.12,34.25,48,92,7.61,TZ,1587213843
hay river,26.6,60.82,-115.8,79,75,6.93,CA,1587213727
estevan,37.4,49.13,-102.98,80,90,13.87,CA,1587213843
chany,58.64,55.31,76.76,54,93,14.58,RU,1587213843
hofn,43.68,64.25,-15.21,85,84,12.15,IS,1587213844
kavaratti,85.69,10.57,72.64,68,28,8.16,IN,1587213844
san severo,75.2,41.69,15.38,33,66,6.93,IT,1587213844
siocon,84.04,7.71,122.14,75,12,6.02,PH,1587213844
kasongo-lunda,72.77,-6.47,16.82,78,100,5.66,CD,1587213844
hami,73.89,42.8,93.45,15,48,4.36,CN,1587213845
abay,68.0,49.63,72.85,24,1,6.71,KZ,1587213845
neiafu,78.8,-18.65,-173.98,88,75,9.17,TO,1587213845
opuwo,84.85,-18.06,13.84,25,34,10.69,NA,1587213845
pakokku,97.29,21.33,95.1,18,29,2.42,MM,1587213846
selma,57.2,36.57,-119.61,100,100,0.69,US,1587213846
jacareacanga,73.98,-6.22,-57.75,93,99,1.77,BR,1587213846
palana,16.66,59.12,159.97,93,60,3.4,RU,1587213846
san juan,68.81,-31.54,-68.54,40,8,2.82,AR,1587213846
santa isabel do rio negro,74.57,-0.41,-65.02,92,95,2.84,BR,1587213846
salalah,86.0,17.02,54.09,66,20,12.75,OM,1587213846
hualmay,69.94,-11.1,-77.61,81,43,5.66,PE,1587213847
tual,84.4,-5.67,132.75,76,100,7.09,ID,1587213847
atambua,75.99,-9.11,124.89,80,59,1.68,ID,1587213847
vestmannaeyjar,44.6,63.44,-20.27,93,90,16.11,IS,1587213847
pisco,66.99,-13.7,-76.22,82,49,5.82,PE,1587213847
zeya,30.94,53.75,127.27,70,98,8.63,RU,1587213848
lubumbashi,77.13,-11.66,27.48,46,30,8.68,CD,1587213848
thessalon,33.8,46.25,-83.57,86,1,6.93,CA,1587213848
noyabrsk,42.31,63.2,75.45,94,100,18.16,RU,1587213848
los llanos de aridane,71.6,28.66,-17.92,56,20,19.46,ES,1587213848
aklavik,32.0,68.22,-135.01,98,90,3.36,CA,1587213727
alyangula,75.2,-13.85,136.42,94,32,8.68,AU,1587213849
ndele,104.5,8.41,20.65,18,77,3.09,CF,1587213849
qandala,86.04,11.47,49.87,68,39,11.36,SO,1587213849
inzer,44.53,54.22,57.56,54,95,12.46,RU,1587213849
orangeburg,68.0,33.49,-80.86,88,40,9.17,US,1587213850
san vicente,60.78,-26.62,-54.13,58,13,3.04,AR,1587213850
bud,35.6,39.45,-86.18,89,1,5.82,US,1587213850
champerico,75.2,14.3,-91.92,88,40,8.05,GT,1587213850
flinders,55.0,-34.58,150.86,82,36,2.37,AU,1587213850
straumen,42.01,63.87,11.3,80,75,10.29,NO,1587213851
san quintin,57.51,30.48,-115.95,75,50,9.98,MX,1587213851
tongliao,61.21,43.61,122.27,27,63,9.55,CN,1587213851
rocha,60.64,-34.48,-54.33,81,0,4.41,UY,1587213851
jurm,55.44,36.86,70.83,30,95,6.93,AF,1587213851
keuruu,44.01,62.27,24.7,41,40,17.22,FI,1587213851
matagami,24.8,49.75,-77.63,73,1,9.17,CA,1587213852
kamenka,45.0,51.32,42.77,79,68,7.0,RU,1587213852
vanavara,25.61,60.34,102.28,88,19,6.46,RU,1587213852
mahebourg,80.6,-20.41,57.7,74,75,16.11,MU,1587213852
aguie,103.03,13.51,7.78,5,87,10.54,NE,1587213852
sumkino,54.9,58.11,68.32,52,91,12.03,RU,1587213852
agadez,100.62,19.75,10.25,7,0,10.16,NE,1587213852
fairbanks,37.99,64.84,-147.72,100,90,3.36,US,1587213606
pasighat,77.58,28.07,95.33,55,77,4.09,IN,1587213853
ahuimanu,78.8,21.44,-157.84,54,20,6.93,US,1587213853
mogadishu,87.58,2.04,45.34,63,92,12.68,SO,1587213726
virginia beach,64.0,36.85,-75.98,77,90,16.11,US,1587213822
bataipora,64.58,-22.3,-53.27,66,91,7.61,BR,1587213853
jiaohe,52.21,43.73,127.34,46,42,2.66,CN,1587213853
torbay,37.99,47.67,-52.73,89,75,17.22,CA,1587213854
samfya,78.93,-11.36,29.56,42,69,9.64,ZM,1587213854
thinadhoo,84.49,0.53,72.93,76,99,13.8,MV,1587213854
sechura,71.62,-5.56,-80.82,83,20,9.44,PE,1587213854
chimbote,69.73,-9.09,-78.58,85,75,4.76,PE,1587213854
cayenne,77.0,4.93,-52.33,94,100,6.96,GF,1587213660
saint anthony,41.0,45.02,-93.22,60,1,11.41,US,1587213855
sisimiut,23.7,66.94,-53.67,94,100,9.46,GL,1587213855
bafra,60.8,41.57,35.91,63,0,6.93,TR,1587213855
pevek,-2.25,69.7,170.31,89,1,7.81,RU,1587213855
paris,75.0,48.85,2.35,43,6,8.05,FR,1587213729
sitka,39.2,57.05,-135.33,93,90,3.36,US,1587213856
iaciara,75.51,-14.1,-46.63,72,100,2.57,BR,1587213856
remanso,79.41,-9.62,-42.08,69,96,8.63,BR,1587213856
lompoc,54.0,34.64,-120.46,87,90,9.17,US,1587213856
sabzevar,69.28,36.21,57.68,23,95,4.52,IR,1587213857
ereymentau,65.71,51.62,73.1,25,52,11.39,KZ,1587213857
unai,72.61,-16.36,-46.91,74,99,6.15,BR,1587213857
brigantine,48.2,39.41,-74.36,81,90,3.36,US,1587213857
attendorn,64.38,51.13,7.9,63,92,6.17,DE,1587213592
namibe,77.0,-15.2,12.15,69,40,17.22,AO,1587213858
chia,51.8,4.86,-74.06,87,20,2.24,CO,1587213858
nanortalik,28.9,60.14,-45.24,90,84,7.47,GL,1587213858
altay,54.19,47.87,88.12,27,3,4.43,CN,1587213858
colares,70.0,38.8,-9.45,63,20,2.24,PT,1587213858
cururupu,77.7,-1.83,-44.87,91,100,3.38,BR,1587213859
dudinka,37.4,69.41,86.18,74,100,29.08,RU,1587213859
itaituba,75.99,-4.28,-55.98,92,98,2.73,BR,1587213859
berbera,87.26,10.44,45.01,67,69,16.64,SO,1587213859
san cristobal,77.0,7.77,-72.22,83,40,2.24,VE,1587213859
beloha,88.7,-25.17,45.05,32,0,9.53,MG,1587213859
aripuana,74.03,-9.17,-60.63,91,90,4.79,BR,1587213860
saldanha,89.6,-33.01,17.94,14,30,3.36,ZA,1587213860
antofagasta,62.6,-23.65,-70.4,82,90,3.36,CL,1587213860
andenes,39.2,69.31,16.12,100,100,12.75,NO,1587213860
kulhudhuffushi,86.67,6.62,73.07,71,91,11.9,MV,1587213860
dingle,82.33,11.0,122.67,74,1,8.99,PH,1587213861
payson,42.01,40.04,-111.73,69,40,5.82,US,1587213861
ekhabi,19.26,53.51,142.97,93,74,3.47,RU,1587213861
pascagoula,71.6,30.37,-88.56,94,75,5.82,US,1587213861
gomel,46.4,52.43,30.98,36,90,15.66,BY,1587213861
manggar,81.99,-2.88,108.27,80,95,8.34,ID,1587213861
nizhniy kuranakh,11.79,58.84,125.49,87,100,2.93,RU,1587213862
ornskoldsvik,48.2,63.29,18.72,36,0,12.75,SE,1587213862
dobre miasto,50.0,53.99,20.4,27,83,9.17,PL,1587213862
denia,63.0,38.84,0.11,90,100,3.0,ES,1587213565
umm kaddadah,97.59,13.6,26.69,7,28,9.17,SD,1587213862
narsaq,30.2,60.92,-46.05,50,40,2.24,GL,1587213862
iqaluit,0.0,63.75,-68.51,70,40,4.7,CA,1587213862
vila velha,77.0,-20.33,-40.29,69,92,17.22,BR,1587213863
khorixas,92.34,-20.37,14.97,17,12,13.35,NA,1587213863
kaeo,60.01,-35.1,173.78,94,20,5.01,NZ,1587213863
emiliano zapata,69.01,18.83,-99.18,56,5,1.21,MX,1587213863
avera,64.4,33.19,-82.53,93,90,8.05,US,1587213863
huruta,73.31,8.15,39.35,31,95,5.21,ET,1587213863
port hawkesbury,37.99,45.62,-61.35,64,1,5.82,CA,1587213863
ayan,15.24,56.45,138.17,83,40,11.54,RU,1587213864
balkanabat,79.99,39.51,54.37,24,0,8.68,TM,1587213864
maturin,78.62,9.75,-63.18,67,32,5.77,VE,1587213864
jizan,93.2,17.33,42.67,63,40,19.46,SA,1587213864
abnub,77.0,27.27,31.15,38,24,17.22,EG,1587213865
fougamou,85.1,-1.22,10.58,68,93,0.09,GA,1587213865
dongying,61.92,37.46,118.49,37,100,6.29,CN,1587213865
yilan,75.0,24.76,121.75,99,100,2.26,TW,1587213865
krasnyy yar,69.8,46.53,48.35,33,98,13.42,RU,1587213865
hvolsvollur,44.6,63.75,-20.22,93,90,16.11,IS,1587213704
kolokani,103.96,13.57,-8.03,9,57,9.64,ML,1587213866
paita,72.59,-5.09,-81.11,76,12,10.65,PE,1587213866
husavik,50.0,66.04,-17.34,57,40,35.57,IS,1587213866
petropavlovsk-kamchatskiy,33.8,53.05,158.65,64,5,6.71,RU,1587213866
hamilton,37.99,39.18,-84.53,74,75,6.93,US,1587213594
hukuntsi,85.98,-24.0,21.75,22,8,15.9,BW,1587213866
san andres,80.6,12.58,-81.7,78,40,5.82,CO,1587213866
puerto colombia,78.8,10.99,-74.95,88,0,4.7,CO,1587213867
ngara,67.68,-2.51,30.66,58,94,3.42,TZ,1587213867
salihorsk,46.83,52.79,27.54,50,51,11.23,BY,1587213577
port hardy,46.4,50.7,-127.42,93,90,3.36,CA,1587213725
le port,82.4,-20.94,55.29,65,20,21.92,RE,1587213867
gafanha da encarnacao,66.0,40.62,-8.73,69,38,4.68,PT,1587213867
port hedland,82.4,-20.32,118.57,83,100,8.05,AU,1587213867
rio gallegos,41.0,-51.62,-69.22,65,20,6.93,AR,1587213868
westport,41.0,41.14,-73.36,93,90,11.41,US,1587213635
ano mera,68.0,37.45,25.4,49,0,6.93,GR,1587213868
aljezur,68.0,37.32,-8.8,63,91,6.93,PT,1587213868
sobolevo,42.85,54.43,31.9,59,96,14.76,RU,1587213868
broome,34.0,42.25,-75.83,100,90,8.05,US,1587213869
ambilobe,87.57,-13.2,49.05,54,96,5.61,MG,1587213869
pemba,87.8,-12.97,40.52,66,20,19.46,MZ,1587213869
roald,48.0,62.58,6.13,52,2,8.05,NO,1587213869
hohen neuendorf,62.01,52.67,13.28,26,0,5.82,DE,1587213797
bonthe,86.54,7.53,-12.51,65,96,10.07,SL,1587213869
ratnagiri,87.8,16.98,73.3,65,29,7.23,IN,1587213867
goderich,35.01,43.75,-81.72,86,36,10.92,CA,1587213870
santa catarina de tepehuanes,48.96,25.35,-105.73,25,52,5.01,MX,1587213870
santa cruz de tenerife,60.01,28.47,-16.25,93,75,19.46,ES,1587213870
tiznit,69.1,29.58,-9.5,29,15,8.66,MA,1587213870
najran,96.8,17.49,44.13,19,40,9.17,SA,1587213870
kabalo,80.82,-6.05,26.92,61,97,4.27,CD,1587213871
yining,63.84,29.04,114.56,85,100,2.28,CN,1587213871
takoradi,87.01,4.88,-1.76,69,56,12.35,GH,1587213871
porto santo,66.2,33.07,-16.34,63,20,11.41,PT,1587213871
gola bazar,103.8,26.34,83.36,10,39,13.0,IN,1587213871
sorong,78.85,-0.88,131.25,86,98,1.41,ID,1587213871
pangnirtung,1.94,66.15,-65.71,87,100,1.9,CA,1587213872
ventspils,44.6,57.39,21.56,70,75,14.99,LV,1587213872
novobirilyussy,48.79,56.95,90.67,59,0,5.61,RU,1587213872
bereda,66.0,43.27,-7.54,61,0,18.01,ES,1587213872
brookhaven,64.0,31.58,-90.44,79,66,8.61,US,1587213872
acajutla,72.0,13.59,-89.83,83,90,1.01,SV,1587213872
qaqortoq,30.2,60.72,-46.03,50,40,2.24,GL,1587213873
byron bay,62.6,-28.65,153.62,83,75,0.31,AU,1587213873
carson city,41.0,39.16,-119.77,75,1,5.06,US,1587213873
kang,88.11,-23.68,22.79,18,24,12.8,BW,1587213873
homer,46.4,59.64,-151.55,87,90,4.68,US,1587213873
jishou,57.72,28.32,109.72,81,99,2.06,CN,1587213874
fort saint james,30.0,54.43,-124.25,76,36,1.88,CA,1587213874
waingapu,80.69,-9.66,120.26,80,86,3.71,ID,1587213874
ariano irpino,75.2,41.15,15.08,33,53,6.93,IT,1587213874
yeppoon,77.0,-23.13,150.73,69,52,6.93,AU,1587213874
quatre cocos,80.6,-20.21,57.76,74,75,16.11,MU,1587213874
aojiang,79.0,22.94,116.04,72,84,3.94,CN,1587213875
bukene,77.47,-4.23,32.88,50,94,8.99,TZ,1587213875
bemidji,43.0,47.47,-94.88,48,40,6.93,US,1587213875
kattivakkam,89.6,13.22,80.32,66,20,11.41,IN,1587213875
camar,69.8,47.3,22.62,22,25,10.29,RO,1587213875
tabou,84.72,4.42,-7.35,80,79,8.84,CI,1587213876
calabar,91.02,4.95,8.32,58,98,4.74,NG,1587213876
khomutovka,46.42,51.92,34.56,50,36,15.5,RU,1587213876
jinxiang,79.0,22.86,115.7,72,90,4.27,CN,1587213876
cherskiy,-2.16,68.75,161.3,88,7,7.4,RU,1587213877
xichang,68.43,27.9,102.26,32,34,0.45,CN,1587213877
gazi,69.01,35.33,25.07,68,1,6.93,GR,1587213877
verkhoyansk,-1.75,67.54,133.38,87,99,4.52,RU,1587213877
yumen,62.29,40.28,97.2,15,6,8.3,CN,1587213877
henties bay,59.0,-22.12,14.28,88,37,7.0,NA,1587213877
nhulunbuy,80.6,-12.23,136.77,83,23,5.82,AU,1587213878
baisha,69.42,26.52,110.93,78,98,1.1,CN,1587213878
gazimurskiy zavod,43.27,51.55,118.33,64,100,11.88,RU,1587213878
martinez,55.4,38.02,-122.13,66,90,6.93,US,1587213879
coquimbo,53.6,-29.95,-71.34,100,90,4.7,CL,1587213879
walvis bay,64.4,-22.96,14.51,68,2,11.41,NA,1587213879
miri,82.4,4.41,114.01,100,75,6.93,MY,1587213707
princeton,81.0,25.54,-80.41,100,1,6.33,US,1587213777
ukiah,51.8,39.15,-123.21,76,90,4.7,US,1587213879
kaspiysk,53.6,42.88,47.64,81,100,4.47,RU,1587213880
oro valley,60.01,32.39,-110.97,30,28,1.01,US,1587213880
half moon bay,55.4,37.46,-122.43,66,90,4.7,US,1587213880
nioro,90.72,13.35,-15.75,19,80,11.21,GM,1587213880
svetlaya,41.86,46.54,138.33,67,98,7.83,RU,1587213880
nantucket,41.0,41.28,-70.1,86,90,19.46,US,1587213880
esperance,62.6,-33.87,121.9,93,90,10.29,AU,1587213881
tilichiki,5.22,60.47,166.1,91,0,10.09,RU,1587213881
saint george,51.8,37.1,-113.58,76,1,3.36,US,1587213881
mascota,70.0,20.52,-104.78,93,90,3.36,MX,1587213881
tamandare,83.12,-8.76,-35.1,71,19,1.01,BR,1587213881
glubczyce,64.0,50.2,17.83,34,3,3.8,PL,1587213882
springbok,86.94,-29.66,17.89,10,0,17.13,ZA,1587213882
bandarbeyla,85.86,9.49,50.81,57,80,10.38,SO,1587213882
rovenki,54.72,48.08,39.38,39,60,15.57,UA,1587213655
phichit,100.99,16.25,100.42,66,91,2.24,TH,1587213882
hambantota,85.69,6.12,81.12,73,75,9.64,LK,1587213883
yuancheng,45.34,36.65,107.79,52,97,6.89,CN,1587213883
piranhas,75.49,-16.43,-51.82,70,100,8.55,BR,1587213883
constitucion,61.61,-35.33,-72.42,92,95,6.44,CL,1587213883
margate,54.0,51.38,1.39,80,82,1.99,GB,1587213883
jojoima,91.35,7.88,-10.79,46,86,5.93,SL,1587213883
mahibadhoo,86.52,3.78,72.97,71,88,10.54,MV,1587213798
mitsamiouli,89.6,-11.38,43.28,62,40,6.93,KM,1587213884
sohag,80.6,26.56,31.69,22,85,16.11,EG,1587213884
souillac,80.6,-20.52,57.52,74,75,16.11,MU,1587213884
senador jose porfirio,75.33,-2.59,-51.95,91,98,1.7,BR,1587213884
kushima,62.6,31.46,131.23,62,20,3.36,JP,1587213885
khulna,78.22,22.81,89.57,78,29,5.73,BD,1587213885
tutoia,81.79,-2.76,-42.27,80,79,2.46,BR,1587213885
darhan,42.8,49.49,105.92,46,100,11.21,MN,1587213885
te anau,42.76,-45.42,167.72,78,99,5.26,NZ,1587213885
hammerfest,37.4,70.66,23.68,69,75,11.41,NO,1587213885
emerald,77.0,-23.53,148.17,78,90,11.41,AU,1587213886
fasa,64.4,28.94,53.65,52,90,6.93,IR,1587213886
japaratuba,82.4,-10.59,-36.94,83,75,10.29,BR,1587213886
karymskoye,43.25,51.62,114.35,48,63,5.99,RU,1587213886
semirom,46.2,31.42,51.57,29,94,12.66,IR,1587213887
grants,33.8,35.15,-107.85,59,1,7.52,US,1587213887
kadoshkino,44.98,54.03,44.42,52,74,15.01,RU,1587213887
miroslav,73.0,48.95,16.31,34,35,1.99,CZ,1587213887
panama city,80.01,8.99,-79.52,88,14,3.36,PA,1587213786
kyshtovka,60.82,56.55,76.63,53,69,15.82,RU,1587213888
turayf,77.0,31.67,38.66,33,40,4.7,SA,1587213888
namtsy,15.8,62.72,129.67,61,26,2.24,RU,1587213888
montgomery,48.99,39.15,-77.2,93,90,6.31,US,1587213746
dolores,59.5,-36.31,-57.68,80,0,8.77,AR,1587213888
nishihara,73.4,26.18,127.76,78,1,9.17,JP,1587213889
songea,77.0,-10.68,35.65,69,40,18.34,TZ,1587213889
hirara,74.37,24.8,125.28,87,81,14.43,JP,1587213889
russell,64.99,32.35,-85.2,88,90,4.7,US,1587213889
limbang,80.6,4.75,115.0,88,75,3.36,MY,1587213889
atyrau,62.6,47.12,51.88,51,79,22.37,KZ,1587213890
murray bridge,54.0,-35.12,139.27,97,90,4.0,AU,1587213890
tautira,80.6,-17.73,-149.15,78,20,5.82,PF,1587213890
port-gentil,87.8,-0.72,8.78,74,40,11.41,GA,1587213890
labuhan,81.82,-6.88,112.21,79,100,5.26,ID,1587213891
amapa,75.76,1.0,-52.0,89,100,1.36,BR,1587213891
bambous virieux,80.6,-20.34,57.76,74,75,16.11,MU,1587213891
paamiut,26.51,61.99,-49.67,93,100,11.01,GL,1587213891
svetlogorsk,47.08,52.63,29.73,50,38,12.21,BY,1587213892
montepuez,81.79,-13.13,39.0,59,45,8.41,MZ,1587213892
vetluzhskiy,40.73,58.39,45.47,66,100,6.22,RU,1587213892
nador,64.4,35.17,-2.93,100,90,6.02,MA,1587213892
leningradskiy,-0.53,69.38,178.42,92,93,8.3,RU,1587213892
pyatigorsk,71.6,44.05,43.06,15,19,4.47,RU,1587213892
sahuaripa,58.6,29.05,-109.23,36,0,3.2,MX,1587213893
pangoa,65.37,-12.12,-73.0,72,97,1.77,PE,1587213816
zhigansk,6.76,66.77,123.37,91,0,12.57,RU,1587213893
kangaatsiaq,26.08,68.31,-53.46,91,100,18.86,GL,1587213893
montero,69.8,-17.33,-63.25,52,20,13.87,BO,1587213894
belyy yar,55.4,53.6,91.39,28,0,11.18,RU,1587213894
boende,73.26,-0.22,20.87,88,100,2.86,CD,1587213894
mocorito,61.0,25.48,-107.92,85,41,1.01,MX,1587213894
lagoa,62.28,39.05,-27.98,84,95,13.76,PT,1587213894
ballina,62.6,-28.87,153.57,78,68,3.49,AU,1587213894
huadian,53.15,42.96,126.75,44,48,3.22,CN,1587213895
lubao,84.2,14.92,120.55,70,75,4.7,PH,1587213895
arlit,103.84,18.74,7.39,6,0,5.97,NE,1587213895
pietarsaari,39.2,63.65,22.68,44,90,16.11,FI,1587213895
cholet,69.01,47.17,-1.0,56,90,6.93,FR,1587213895
velasco ibarra,73.08,-1.05,-79.62,95,100,3.76,EC,1587213895
melbu,39.81,68.5,14.83,94,100,8.48,NO,1587213895
alice springs,73.4,-23.7,133.88,35,0,9.17,AU,1587213896
krasnoselkup,40.6,65.7,82.47,87,100,23.87,RU,1587213896
vila franca do campo,62.6,37.72,-25.43,72,20,12.75,PT,1587213896
turukhansk,40.32,65.82,87.98,78,100,12.3,RU,1587213896
